<?xml version="1.0" encoding="UTF-8"?>
<gpx version="1.0" creator="GPSBabel - https://www.gpsbabel.org" xmlns="http://www.topografix.com/GPX/1/0">
  <time>2025-02-09T09:02:37.436Z</time>
  <bounds minlat="1.270420524" minlon="103.721161272" maxlat="1.435211393" maxlon="103.951307631"/>
  <wpt lat="1.331718293" lon="103.922571123">
    <ele>0.000</ele>
    <name>Bedok Town Secondary School</name>
    <cmt>1984–2016</cmt>
    <desc>1984–2016</desc>
  </wpt>
  <wpt lat="1.348593290" lon="103.732961697">
    <ele>0.000</ele>
    <name>Boon Lay Primary School</name>
    <cmt>1983–2006
2006– Jurong Primary School</cmt>
    <desc>1983–2006
2006– Jurong Primary School</desc>
  </wpt>
  <wpt lat="1.348288405" lon="103.740309992">
    <ele>0.000</ele>
    <name>Bukit Batok Secondary School</name>
    <cmt>1986–
Rebuilt 2006</cmt>
    <desc>1986–
Rebuilt 2006</desc>
  </wpt>
  <wpt lat="1.373390563" lon="103.769468334">
    <ele>0.000</ele>
    <name>Bukit Panjang Primary School</name>
    <cmt>1990–</cmt>
    <desc>1990–</desc>
  </wpt>
  <wpt lat="1.350673110" lon="103.951307631">
    <ele>0.000</ele>
    <name>Chongzheng Primary School</name>
    <cmt>1987–
Rebuilt 2002</cmt>
    <desc>1987–
Rebuilt 2002</desc>
  </wpt>
  <wpt lat="1.351530891" lon="103.729246848">
    <ele>0.000</ele>
    <name>Commonwealth Secondary School</name>
    <cmt>1989–1996
Jurongville Secondary School 1996–</cmt>
    <desc>1989–1996
Jurongville Secondary School 1996–</desc>
  </wpt>
  <wpt lat="1.335724377" lon="103.921173020">
    <ele>0.000</ele>
    <name>Damai Primary School</name>
    <cmt>1984–
Rebuilt 2018</cmt>
    <desc>1984–
Rebuilt 2018</desc>
  </wpt>
  <wpt lat="1.435211393" lon="103.773161805">
    <ele>0.000</ele>
    <name>Fuchun Primary School</name>
    <cmt>1985–20051</cmt>
    <desc>1985–20051</desc>
  </wpt>
  <wpt lat="1.270420524" lon="103.809829117">
    <ele>0.000</ele>
    <name>Jagoh Primary School</name>
    <cmt>1985–1999
Demolished between 2003–2008</cmt>
    <desc>1985–1999
Demolished between 2003–2008</desc>
  </wpt>
  <wpt lat="1.427330141" lon="103.830342980">
    <ele>0.000</ele>
    <name>Jiemin Primary School</name>
    <cmt>1985–</cmt>
    <desc>1985–</desc>
  </wpt>
  <wpt lat="1.350395230" lon="103.728816672">
    <ele>0.000</ele>
    <name>Jurong Primary School</name>
    <cmt>1985–2006</cmt>
    <desc>1985–2006</desc>
  </wpt>
  <wpt lat="1.376216917" lon="103.835607606">
    <ele>0.000</ele>
    <name>Kebun Baru Primary School</name>
    <cmt>1985–2002
Anderson Primary School 2015
Mayflower Primary School 2019–2022</cmt>
    <desc>1985–2002
Anderson Primary School 2015
Mayflower Primary School 2019–2022</desc>
  </wpt>
  <wpt lat="1.327960000" lon="103.845787679">
    <ele>0.000</ele>
    <name>Lee Kuo Chuan Primary School</name>
    <cmt>1987–1997</cmt>
    <desc>1987–1997</desc>
  </wpt>
  <wpt lat="1.427840279" lon="103.844799836">
    <ele>0.000</ele>
    <name>North View Secondary School</name>
    <cmt>1988–2017
Woodlands Ring Secondary School 2020–?</cmt>
    <desc>1988–2017
Woodlands Ring Secondary School 2020–?</desc>
  </wpt>
  <wpt lat="1.349353952" lon="103.740990572">
    <ele>0.000</ele>
    <name>Princess Elizabeth Primary School</name>
    <cmt>1986–</cmt>
    <desc>1986–</desc>
  </wpt>
  <wpt lat="1.274769585" lon="103.824199604">
    <ele>0.000</ele>
    <name>Radin Mas Primary School</name>
    <cmt>1984–</cmt>
    <desc>1984–</desc>
  </wpt>
  <wpt lat="1.347646259" lon="103.721161272">
    <ele>0.000</ele>
    <name>Shuqun Primary School</name>
    <cmt>1986–</cmt>
    <desc>1986–</desc>
  </wpt>
  <wpt lat="1.349660869" lon="103.944198686">
    <ele>0.000</ele>
    <name>Tampines Primary School</name>
    <cmt>1986–
Rebuilt 2009</cmt>
    <desc>1986–
Rebuilt 2009</desc>
  </wpt>
  <wpt lat="1.371223827" lon="103.882759132">
    <ele>0.000</ele>
    <name>Xinmin Primary School</name>
    <cmt>1988–</cmt>
    <desc>1988–</desc>
  </wpt>
  <wpt lat="1.343106663" lon="103.741009129">
    <ele>0.000</ele>
    <name>Yuhua Primary School</name>
    <cmt>1983–</cmt>
    <desc>1983–</desc>
  </wpt>
  <wpt lat="1.351406196" lon="103.950852103">
    <ele>0.000</ele>
    <name>Yumin Primary School</name>
    <cmt>1985–
Rebuilt 2003</cmt>
    <desc>1985–
Rebuilt 2003</desc>
  </wpt>
  <wpt lat="1.379727152" lon="103.769236780">
    <ele>0.000</ele>
    <name>Zhenghua Primary School</name>
    <cmt>1989–</cmt>
    <desc>1989–</desc>
  </wpt>
</gpx>
